{
"type": "FeatureCollection",
"name": "MapA",
"crs": { "type": "name", "properties": { "name": "urn:ogc:def:crs:OGC:1.3:CRS84" } },
"features": [
{ "type": "Feature", "properties": { "Name": "Mount Rainier", "HeightRank": "1", "Prominence": "13246" }, "geometry": { "type": "Point", "coordinates": [ -121.7604, 46.8529, 0.0 ] } },
{ "type": "Feature", "properties": { "Name": "Mount Adams", "HeightRank": "2", "Prominence": "8136" }, "geometry": { "type": "Point", "coordinates": [ -121.4909, 46.2024, 0.0 ] } },
{ "type": "Feature", "properties": { "Name": "Mount Baker", "HeightRank": "3", "Prominence": "8845" }, "geometry": { "type": "Point", "coordinates": [ -121.8145, 48.7768, 0.0 ] } },
{ "type": "Feature", "properties": { "Name": "Glacier Peak", "HeightRank": "4", "Prominence": "7518" }, "geometry": { "type": "Point", "coordinates": [ -121.1138, 48.1125, 0.0 ] } },
{ "type": "Feature", "properties": { "Name": "Mount Saint Helens before 1980 eruption", "HeightRank": "5", "Prominence": "5937" }, "geometry": { "type": "Point", "coordinates": [ -122.191, 46.197, 0.0 ] } },
{ "type": "Feature", "properties": { "Name": "Bonanza Peak", "HeightRank": "6", "Prominence": "3731" }, "geometry": { "type": "Point", "coordinates": [ -120.8664, 48.2382, 0.0 ] } },
{ "type": "Feature", "properties": { "Name": "Mount Stuart", "HeightRank": "7", "Prominence": "5454" }, "geometry": { "type": "Point", "coordinates": [ -120.9024, 47.4751, 0.0 ] } },
{ "type": "Feature", "properties": { "Name": "Mount Fernow", "HeightRank": "8", "Prominence": "2811" }, "geometry": { "type": "Point", "coordinates": [ -120.8075, 48.1625, 0.0 ] } },
{ "type": "Feature", "properties": { "Name": "Goode Mountain", "HeightRank": "9", "Prominence": "3828" }, "geometry": { "type": "Point", "coordinates": [ -120.9115, 48.4831, 0.0 ] } },
{ "type": "Feature", "properties": { "Name": "Mount Shuksan", "HeightRank": "10", "Prominence": "4431" }, "geometry": { "type": "Point", "coordinates": [ -121.6032, 48.8315, 0.0 ] } },
{ "type": "Feature", "properties": { "Name": "Buckner Mountain", "HeightRank": "11", "Prominence": "3054" }, "geometry": { "type": "Point", "coordinates": [ -120.9999, 48.4943, 0.0 ] } },
{ "type": "Feature", "properties": { "Name": "Jack Mountain", "HeightRank": "12", "Prominence": "4211" }, "geometry": { "type": "Point", "coordinates": [ -120.9562, 48.7728, 0.0 ] } },
{ "type": "Feature", "properties": { "Name": "Mount Spickard", "HeightRank": "13", "Prominence": "4799" }, "geometry": { "type": "Point", "coordinates": [ -121.2405, 48.9697, 0.0 ] } },
{ "type": "Feature", "properties": { "Name": "Black Peak", "HeightRank": "14", "Prominence": "3470" }, "geometry": { "type": "Point", "coordinates": [ -120.8162, 48.5236, 0.0 ] } },
{ "type": "Feature", "properties": { "Name": "Mount Redoubt", "HeightRank": "15", "Prominence": "1669" }, "geometry": { "type": "Point", "coordinates": [ -121.3007, 48.9578, 0.0 ] } },
{ "type": "Feature", "properties": { "Name": "North Gardner Mountain", "HeightRank": "16", "Prominence": "4016" }, "geometry": { "type": "Point", "coordinates": [ -120.5017, 48.5152, 0.0 ] } },
{ "type": "Feature", "properties": { "Name": "Dome Peak", "HeightRank": "17", "Prominence": "3080" }, "geometry": { "type": "Point", "coordinates": [ -121.0295, 48.3034, 0.0 ] } },
{ "type": "Feature", "properties": { "Name": "Silver Star Mountain", "HeightRank": "18", "Prominence": "2456" }, "geometry": { "type": "Point", "coordinates": [ -120.5851, 48.5479, 0.0 ] } },
{ "type": "Feature", "properties": { "Name": "Eldorado Peak", "HeightRank": "19", "Prominence": "2205" }, "geometry": { "type": "Point", "coordinates": [ -121.1345, 48.5374, 0.0 ] } },
{ "type": "Feature", "properties": { "Name": "Dragontail Peak", "HeightRank": "20", "Prominence": "1800" }, "geometry": { "type": "Point", "coordinates": [ -120.8332, 47.4789, 0.0 ] } },
{ "type": "Feature", "properties": { "Name": "Oval Peak", "HeightRank": "21", "Prominence": "2731" }, "geometry": { "type": "Point", "coordinates": [ -120.4251, 48.2872, 0.0 ] } },
{ "type": "Feature", "properties": { "Name": "Mesahchie Peak", "HeightRank": "22", "Prominence": "2255" }, "geometry": { "type": "Point", "coordinates": [ -120.8803, 48.5786, 0.0 ] } },
{ "type": "Feature", "properties": { "Name": "Fortress Mountain", "HeightRank": "23", "Prominence": "1720" }, "geometry": { "type": "Point", "coordinates": [ -120.9332, 48.1598, 0.0 ] } },
{ "type": "Feature", "properties": { "Name": "Mount Lago", "HeightRank": "24", "Prominence": "3268" }, "geometry": { "type": "Point", "coordinates": [ -120.5374, 48.8293, 0.0 ] } },
{ "type": "Feature", "properties": { "Name": "Robinson Mountain", "HeightRank": "25", "Prominence": "1706" }, "geometry": { "type": "Point", "coordinates": [ -120.5751, 48.7268, 0.0 ] } },
{ "type": "Feature", "properties": { "Name": "Remmel Mountain", "HeightRank": "26", "Prominence": "4385" }, "geometry": { "type": "Point", "coordinates": [ -120.1968, 48.9234, 0.0 ] } },
{ "type": "Feature", "properties": { "Name": "Martin Peak", "HeightRank": "27", "Prominence": "2131" }, "geometry": { "type": "Point", "coordinates": [ -120.8158, 48.2417, 0.0 ] } },
{ "type": "Feature", "properties": { "Name": "Big Craggy Peak", "HeightRank": "28", "Prominence": "3090" }, "geometry": { "type": "Point", "coordinates": [ -120.328, 48.763, 0.0 ] } },
{ "type": "Feature", "properties": { "Name": "Pinnacle Mountain", "HeightRank": "29", "Prominence": "1760" }, "geometry": { "type": "Point", "coordinates": [ -120.6705, 48.1321, 0.0 ] } },
{ "type": "Feature", "properties": { "Name": "Lost Peak", "HeightRank": "30", "Prominence": "1644" }, "geometry": { "type": "Point", "coordinates": [ -120.4583, 48.8129, 0.0 ] } },
{ "type": "Feature", "properties": { "Name": "Tower Mountain", "HeightRank": "31", "Prominence": "2904" }, "geometry": { "type": "Point", "coordinates": [ -120.7042, 48.5885, 0.0 ] } },
{ "type": "Feature", "properties": { "Name": "Azurite Peak", "HeightRank": "32", "Prominence": "1920" }, "geometry": { "type": "Point", "coordinates": [ -120.7521, 48.6573, 0.0 ] } },
{ "type": "Feature", "properties": { "Name": "Reynolds Peak", "HeightRank": "33", "Prominence": "2052" }, "geometry": { "type": "Point", "coordinates": [ -120.563, 48.3723, 0.0 ] } },
{ "type": "Feature", "properties": { "Name": "Devore Peak", "HeightRank": "34", "Prominence": "1742" }, "geometry": { "type": "Point", "coordinates": [ -120.7653, 48.2768, 0.0 ] } },
{ "type": "Feature", "properties": { "Name": "Snowfield Peak", "HeightRank": "35", "Prominence": "2927" }, "geometry": { "type": "Point", "coordinates": [ -121.1388, 48.6353, 0.0 ] } },
{ "type": "Feature", "properties": { "Name": "Mount Saint Helens", "HeightRank": "36", "Prominence": "4593" }, "geometry": { "type": "Point", "coordinates": [ -122.1956, 46.1914, 0.0 ] } },
{ "type": "Feature", "properties": { "Name": "Windy Peak", "HeightRank": "37", "Prominence": "1778" }, "geometry": { "type": "Point", "coordinates": [ -119.9706, 48.9283, 0.0 ] } },
{ "type": "Feature", "properties": { "Name": "Mount Formidable", "HeightRank": "38", "Prominence": "1905" }, "geometry": { "type": "Point", "coordinates": [ -121.0671, 48.4163, 0.0 ] } },
{ "type": "Feature", "properties": { "Name": "Flora Mountain", "HeightRank": "39", "Prominence": "1820" }, "geometry": { "type": "Point", "coordinates": [ -120.6957, 48.2431, 0.0 ] } },
{ "type": "Feature", "properties": { "Name": "Luna Peak", "HeightRank": "40", "Prominence": "3105" }, "geometry": { "type": "Point", "coordinates": [ -121.2721, 48.8308, 0.0 ] } },
{ "type": "Feature", "properties": { "Name": "Castle Peak", "HeightRank": "41", "Prominence": "3246" }, "geometry": { "type": "Point", "coordinates": [ -120.8622, 48.9821, 0.0 ] } },
{ "type": "Feature", "properties": { "Name": "Sentinel Peak", "HeightRank": "42", "Prominence": "1681" }, "geometry": { "type": "Point", "coordinates": [ -121.0409, 48.3562, 0.0 ] } },
{ "type": "Feature", "properties": { "Name": "Tiffany Mountain", "HeightRank": "43", "Prominence": "2782" }, "geometry": { "type": "Point", "coordinates": [ -119.9325, 48.6696, 0.0 ] } },
{ "type": "Feature", "properties": { "Name": "Gilbert Peak", "HeightRank": "44", "Prominence": "3684" }, "geometry": { "type": "Point", "coordinates": [ -121.4084, 46.4886, 0.0 ] } },
{ "type": "Feature", "properties": { "Name": "Mount Terror", "HeightRank": "45", "Prominence": "1934" }, "geometry": { "type": "Point", "coordinates": [ -121.2994, 48.7748, 0.0 ] } },
{ "type": "Feature", "properties": { "Name": "The Needles", "HeightRank": "46", "Prominence": "1759" }, "geometry": { "type": "Point", "coordinates": [ -120.6574, 48.5998, 0.0 ] } },
{ "type": "Feature", "properties": { "Name": "Crater Mountain", "HeightRank": "47", "Prominence": "1948" }, "geometry": { "type": "Point", "coordinates": [ -120.9202, 48.7393, 0.0 ] } },
{ "type": "Feature", "properties": { "Name": "McGregor Mountain", "HeightRank": "48", "Prominence": "2142" }, "geometry": { "type": "Point", "coordinates": [ -120.7982, 48.4082, 0.0 ] } },
{ "type": "Feature", "properties": { "Name": "Big Chiwaukum", "HeightRank": "49", "Prominence": "3701" }, "geometry": { "type": "Point", "coordinates": [ -120.9347, 47.7024, 0.0 ] } },
{ "type": "Feature", "properties": { "Name": "Hozomeen North Peak", "HeightRank": "50", "Prominence": "3947" }, "geometry": { "type": "Point", "coordinates": [ -121.012, 48.9822, 0.0 ] } },
{ "type": "Feature", "properties": { "Name": "Cutthroat Peak", "HeightRank": "51", "Prominence": "1750" }, "geometry": { "type": "Point", "coordinates": [ -120.7035, 48.5264, 0.0 ] } },
{ "type": "Feature", "properties": { "Name": "American Border Peak", "HeightRank": "52", "Prominence": "2934" }, "geometry": { "type": "Point", "coordinates": [ -121.6651, 48.9954, 0.0 ] } },
{ "type": "Feature", "properties": { "Name": "Mount Olympus", "HeightRank": "53", "Prominence": "7838" }, "geometry": { "type": "Point", "coordinates": [ -123.7108, 47.8013, 0.0 ] } },
{ "type": "Feature", "properties": { "Name": "Three Fools Peak", "HeightRank": "54", "Prominence": "2489" }, "geometry": { "type": "Point", "coordinates": [ -120.7633, 48.9006, 0.0 ] } },
{ "type": "Feature", "properties": { "Name": "Gabriel Peak", "HeightRank": "55", "Prominence": "1960" }, "geometry": { "type": "Point", "coordinates": [ -120.9353, 48.6278, 0.0 ] } },
{ "type": "Feature", "properties": { "Name": "Mount Daniel NW summit", "HeightRank": "56", "Prominence": "3520" }, "geometry": { "type": "Point", "coordinates": [ -121.172, 47.5626, 0.0 ] } },
{ "type": "Feature", "properties": { "Name": "Chopaka Mountain", "HeightRank": "57", "Prominence": "1827" }, "geometry": { "type": "Point", "coordinates": [ -119.7848, 48.9574, 0.0 ] } },
{ "type": "Feature", "properties": { "Name": "Plummer Mountain", "HeightRank": "58", "Prominence": "1970" }, "geometry": { "type": "Point", "coordinates": [ -120.9721, 48.2071, 0.0 ] } },
{ "type": "Feature", "properties": { "Name": "Sloan Peak", "HeightRank": "59", "Prominence": "3895" }, "geometry": { "type": "Point", "coordinates": [ -121.3402, 48.0415, 0.0 ] } },
{ "type": "Feature", "properties": { "Name": "Mount Deception", "HeightRank": "60", "Prominence": "4128" }, "geometry": { "type": "Point", "coordinates": [ -123.2334, 47.8134, 0.0 ] } },
{ "type": "Feature", "properties": { "Name": "Mount Aix", "HeightRank": "61", "Prominence": "3296" }, "geometry": { "type": "Point", "coordinates": [ -121.2559, 46.795, 0.0 ] } },
{ "type": "Feature", "properties": { "Name": "Mount Constance", "HeightRank": "62", "Prominence": "1976" }, "geometry": { "type": "Point", "coordinates": [ -123.1273, 47.7728, 0.0 ] } },
{ "type": "Feature", "properties": { "Name": "Elija Ridge", "HeightRank": "63", "Prominence": "2039" }, "geometry": { "type": "Point", "coordinates": [ -120.9601, 48.6504, 0.0 ] } },
{ "type": "Feature", "properties": { "Name": "Chimney Rock", "HeightRank": "64", "Prominence": "2747" }, "geometry": { "type": "Point", "coordinates": [ -121.2901, 47.5071, 0.0 ] } },
{ "type": "Feature", "properties": { "Name": "Mount Blum", "HeightRank": "65", "Prominence": "3300" }, "geometry": { "type": "Point", "coordinates": [ -121.4825, 48.7541, 0.0 ] } },
{ "type": "Feature", "properties": { "Name": "Mount Prophet", "HeightRank": "66", "Prominence": "4040" }, "geometry": { "type": "Point", "coordinates": [ -121.1628, 48.8486, 0.0 ] } },
{ "type": "Feature", "properties": { "Name": "Daemon Peak", "HeightRank": "67", "Prominence": "2214" }, "geometry": { "type": "Point", "coordinates": [ -120.8397, 48.8344, 0.0 ] } },
{ "type": "Feature", "properties": { "Name": "The Cradle", "HeightRank": "68", "Prominence": "2127" }, "geometry": { "type": "Point", "coordinates": [ -121.033, 47.5608, 0.0 ] } },
{ "type": "Feature", "properties": { "Name": "Mount Misch", "HeightRank": "69", "Prominence": "2455" }, "geometry": { "type": "Point", "coordinates": [ -121.2, 48.3435, 0.0 ] } },
{ "type": "Feature", "properties": { "Name": "Tomyhoi Peak", "HeightRank": "70", "Prominence": "2055" }, "geometry": { "type": "Point", "coordinates": [ -121.7098, 48.9749, 0.0 ] } },
{ "type": "Feature", "properties": { "Name": "Mount David", "HeightRank": "71", "Prominence": "2440" }, "geometry": { "type": "Point", "coordinates": [ -120.9895, 47.9631, 0.0 ] } },
{ "type": "Feature", "properties": { "Name": "Ruby Mountain", "HeightRank": "72", "Prominence": "3908" }, "geometry": { "type": "Point", "coordinates": [ -121.0429, 48.6944, 0.0 ] } },
{ "type": "Feature", "properties": { "Name": "Indian Head Peak", "HeightRank": "73", "Prominence": "2040" }, "geometry": { "type": "Point", "coordinates": [ -121.0978, 48.0079, 0.0 ] } },
{ "type": "Feature", "properties": { "Name": "West Peak", "HeightRank": "74", "Prominence": "1985" }, "geometry": { "type": "Point", "coordinates": [ -123.3492, 47.7232, 0.0 ] } },
{ "type": "Feature", "properties": { "Name": "Gypsy Peak", "HeightRank": "75", "Prominence": "1760" }, "geometry": { "type": "Point", "coordinates": [ -117.1524, 48.9458, 0.0 ] } },
{ "type": "Feature", "properties": { "Name": "Abercrombie Mountain", "HeightRank": "76", "Prominence": "5178" }, "geometry": { "type": "Point", "coordinates": [ -117.46, 48.9284, 0.0 ] } },
{ "type": "Feature", "properties": { "Name": "Kyes Peak", "HeightRank": "77", "Prominence": "1760" }, "geometry": { "type": "Point", "coordinates": [ -121.3337, 47.9647, 0.0 ] } },
{ "type": "Feature", "properties": { "Name": "Mount Bonaparte", "HeightRank": "78", "Prominence": "3557" }, "geometry": { "type": "Point", "coordinates": [ -119.1223, 48.7852, 0.0 ] } },
{ "type": "Feature", "properties": { "Name": "Mount Triumph", "HeightRank": "79", "Prominence": "1760" }, "geometry": { "type": "Point", "coordinates": [ -121.3562, 48.7067, 0.0 ] } },
{ "type": "Feature", "properties": { "Name": "Mount Despair", "HeightRank": "80", "Prominence": "1872" }, "geometry": { "type": "Point", "coordinates": [ -121.3768, 48.7373, 0.0 ] } },
{ "type": "Feature", "properties": { "Name": "Mount Pugh", "HeightRank": "81", "Prominence": "2821" }, "geometry": { "type": "Point", "coordinates": [ -121.3744, 48.1431, 0.0 ] } },
{ "type": "Feature", "properties": { "Name": "Copper Butte", "HeightRank": "82", "Prominence": "4760" }, "geometry": { "type": "Point", "coordinates": [ -118.4656, 48.7025, 0.0 ] } },
{ "type": "Feature", "properties": { "Name": "Mount Howard", "HeightRank": "83", "Prominence": "2923" }, "geometry": { "type": "Point", "coordinates": [ -120.9546, 47.8145, 0.0 ] } },
{ "type": "Feature", "properties": { "Name": "Bacon Peak", "HeightRank": "84", "Prominence": "2505" }, "geometry": { "type": "Point", "coordinates": [ -121.5206, 48.6627, 0.0 ] } },
{ "type": "Feature", "properties": { "Name": "Davis Peak", "HeightRank": "85", "Prominence": "1791" }, "geometry": { "type": "Point", "coordinates": [ -121.203, 48.7295, 0.0 ] } },
{ "type": "Feature", "properties": { "Name": "Crystal Mountain", "HeightRank": "86", "Prominence": "2304" }, "geometry": { "type": "Point", "coordinates": [ -121.504, 46.9159, 0.0 ] } },
{ "type": "Feature", "properties": { "Name": "White Chuck Mountain", "HeightRank": "87", "Prominence": "3809" }, "geometry": { "type": "Point", "coordinates": [ -121.4169, 48.2085, 0.0 ] } },
{ "type": "Feature", "properties": { "Name": "Unicorn Peak", "HeightRank": "88", "Prominence": "2104" }, "geometry": { "type": "Point", "coordinates": [ -121.7009, 46.7451, 0.0 ] } },
{ "type": "Feature", "properties": { "Name": "South Twin", "HeightRank": "89", "Prominence": "3560" }, "geometry": { "type": "Point", "coordinates": [ -121.9874, 48.7049, 0.0 ] } },
{ "type": "Feature", "properties": { "Name": "Mission Peak", "HeightRank": "90", "Prominence": "2809" }, "geometry": { "type": "Point", "coordinates": [ -120.4412, 47.2848, 0.0 ] } },
{ "type": "Feature", "properties": { "Name": "Calispell Peak", "HeightRank": "91", "Prominence": "3645" }, "geometry": { "type": "Point", "coordinates": [ -117.5025, 48.4369, 0.0 ] } },
{ "type": "Feature", "properties": { "Name": "Three Fingers", "HeightRank": "92", "Prominence": "4510" }, "geometry": { "type": "Point", "coordinates": [ -121.6878, 48.1699, 0.0 ] } },
{ "type": "Feature", "properties": { "Name": "The Brothers S summit", "HeightRank": "93", "Prominence": "2702" }, "geometry": { "type": "Point", "coordinates": [ -123.1406, 47.6538, 0.0 ] } },
{ "type": "Feature", "properties": { "Name": "Whitehorse Mountain", "HeightRank": "94", "Prominence": "2200" }, "geometry": { "type": "Point", "coordinates": [ -121.6777, 48.211, 0.0 ] } },
{ "type": "Feature", "properties": { "Name": "Molybdenite Mountain", "HeightRank": "95", "Prominence": "2364" }, "geometry": { "type": "Point", "coordinates": [ -117.2863, 48.7102, 0.0 ] } },
{ "type": "Feature", "properties": { "Name": "Moses Mountain", "HeightRank": "96", "Prominence": "4145" }, "geometry": { "type": "Point", "coordinates": [ -119.0613, 48.3719, 0.0 ] } },
{ "type": "Feature", "properties": { "Name": "Del Campo Peak", "HeightRank": "97", "Prominence": "2230" }, "geometry": { "type": "Point", "coordinates": [ -121.4706, 47.9907, 0.0 ] } },
{ "type": "Feature", "properties": { "Name": "Mount Stone", "HeightRank": "98", "Prominence": "2152" }, "geometry": { "type": "Point", "coordinates": [ -123.2666, 47.6063, 0.0 ] } },
{ "type": "Feature", "properties": { "Name": "Oregon Butte", "HeightRank": "99", "Prominence": "2417" }, "geometry": { "type": "Point", "coordinates": [ -117.6797, 46.1104, 0.0 ] } },
{ "type": "Feature", "properties": { "Name": "Dirtyface Peak", "HeightRank": "100", "Prominence": "3360" }, "geometry": { "type": "Point", "coordinates": [ -120.8253, 47.8713, 0.0 ] } },
{ "type": "Feature", "properties": { "Name": "Mount Washington", "HeightRank": "101", "Prominence": "2635" }, "geometry": { "type": "Point", "coordinates": [ -123.246, 47.5313, 0.0 ] } }
]
}
